,City,Date,Cloudiness,Country,Humidity,Lat,Lng,Max Temperature,Wind
0,Bluff,1538288516,36,AU,34,-23.58,149.07,85.76,8.43
1,Castro,1538288568,80,CL,100,-42.48,-73.76,36.89,7.2
2,Sibolga,1538288865,32,ID,100,1.74,98.78,75.86,1.39
3,Barrow,1538288729,20,AR,84,-38.31,-60.23,45.98,6.2
4,Itacoatiara,1538288866,12,BR,69,-3.14,-58.44,81.62,5.41
5,Sitka,1538288751,0,US,66,37.17,-99.65,70.55,17.72
6,Apucarana,1538287200,0,BR,78,-23.55,-51.46,73.4,11.68
7,Chuy,1538288867,92,UY,96,-33.69,-53.46,65.78,4.63
8,Katsuura,1538286300,90,JP,83,33.93,134.5,80.6,44.96
9,Punta Arenas,1538283600,0,CL,64,-53.16,-70.91,33.8,16.11
10,Hilo,1538286960,90,US,84,19.71,-155.08,78.98,3.36
11,Rylsk,1538288868,80,RU,95,51.57,34.68,40.94,4.63
12,Rikitea,1538288755,92,PF,100,-23.12,-134.97,72.98,11.79
13,Kota Belud,1538287200,75,MY,75,6.35,116.43,91.4,2.24
14,Ushuaia,1538284800,90,AR,86,-54.81,-68.31,30.2,21.92
15,La Ronge,1538287200,75,CA,63,55.1,-105.3,26.6,10.29
16,Asosa,1538288869,68,ET,97,10.07,34.53,68.39,3.74
17,Ulladulla,1538283600,0,AU,42,-35.36,150.48,62.6,12.75
18,Bethel,1538286780,40,US,62,60.79,-161.76,59.0,12.75
19,Vaini,1538288728,32,IN,93,15.34,74.49,81.53,2.62
20,Pyapon,1538288870,80,MM,100,16.29,95.68,82.97,4.74
21,Cabo San Lucas,1538288631,64,MX,100,22.89,-109.91,81.8,3.18
22,Katherine,1538287200,0,AU,14,-14.47,132.26,98.6,16.11
23,Thompson,1538287500,75,CA,74,55.74,-97.86,28.4,9.17
24,Severo-Kurilsk,1538288776,0,RU,83,50.68,156.12,53.36,11.01
25,Port Elizabeth,1538286960,1,US,96,39.31,-74.98,60.98,4.85
26,Nanortalik,1538288731,92,GL,97,60.14,-45.24,37.07,35.95
27,Karratha,1538288872,0,AU,32,-20.74,116.85,85.13,14.03
28,Kutulik,1538288873,0,RU,75,53.35,102.79,58.49,6.42
29,Saint-Joseph,1538287200,0,FR,71,43.56,6.97,64.4,5.82
30,Busselton,1538288750,0,AU,88,-33.64,115.35,65.78,23.76
31,Anadyr,1538283600,75,RU,93,64.73,177.51,50.0,40.26
32,Sinnamary,1538288874,12,GF,97,5.38,-52.96,81.08,12.12
33,Marica,1538287200,40,BR,83,-22.92,-42.82,75.2,6.93
34,Bijie,1538288875,100,CN,73,27.3,105.3,65.06,3.85
35,New Norfolk,1538287200,75,AU,48,-42.78,147.06,62.6,10.29
36,Berlevag,1538288875,92,NO,100,70.86,29.09,37.16,12.46
37,Kieta,1538288875,48,PG,98,-6.22,155.63,80.9,2.73
38,Kapaa,1538287620,40,US,100,22.08,-159.32,78.08,11.41
39,Port Lincoln,1538288876,24,AU,72,-34.72,135.86,63.89,13.13
40,Albany,1538287980,1,US,86,42.65,-73.75,46.94,2.17
41,Georgetown,1538287200,0,GY,94,6.8,-58.16,75.2,2.24
42,Alphen,1538286900,0,NL,79,51.82,5.47,37.4,1.12
43,Gander,1538287200,20,CA,87,48.95,-54.61,48.2,14.99
44,Funadhoo,1538288887,80,MV,100,6.15,73.27,82.79,15.03
45,Provideniya,1538288888,92,RU,84,64.42,-173.23,49.13,25.55
46,Esna,1538288888,12,RO,75,45.2,27.57,52.37,19.39
47,Binzhou,1538288888,0,CN,41,37.38,117.96,68.3,17.16
48,Bintulu,1538287200,75,MY,63,3.17,113.03,91.4,6.93
49,Lima,1538288690,12,PE,80,-12.06,-77.04,54.53,2.17
50,Vao,1538288889,92,EE,97,59.1,26.19,48.41,13.69
51,Weatherford,1538286900,40,US,90,32.76,-97.8,71.96,11.41
52,Saint-Philippe,1538287200,75,CA,81,45.36,-73.48,51.8,2.24
53,Prince George,1538287200,1,CA,50,53.92,-122.75,33.8,13.87
54,Sao Joao da Barra,1538288890,88,BR,100,-21.64,-41.05,73.43,9.55
55,Biak,1538288890,36,ID,92,-0.91,122.88,80.45,6.98
56,Santa Cruz Cabralia,1538287200,20,BR,94,-16.28,-39.02,69.8,2.24
57,Adrar,1538287200,0,DZ,39,27.87,-0.29,66.2,11.41
58,Hithadhoo,1538288732,92,MV,100,-0.6,73.08,82.7,13.24
59,Grudziadz,1538287200,0,PL,80,53.48,18.75,41.0,5.82
60,Lebu,1538283600,0,ET,55,8.96,38.73,62.6,9.17
61,Qaanaaq,1538288705,44,GL,100,77.48,-69.36,16.46,7.99
62,Victoria,1538287200,75,BN,66,5.28,115.24,89.6,2.24
63,Valley City,1538286900,90,US,100,46.92,-98.0,41.0,5.82
64,Atuona,1538288754,88,PF,100,-9.8,-139.03,79.46,9.44
65,Lasa,1538287200,20,CY,61,34.92,32.53,84.2,3.36
66,Pevek,1538288893,92,RU,79,69.7,170.27,49.76,9.55
67,Scarborough,1538286600,24,GB,87,54.28,-0.41,50.0,5.82
68,Lakes Entrance,1538288894,0,AU,78,-37.88,147.99,57.86,6.42
69,Esperance,1538287200,20,TT,94,10.24,-61.45,78.8,6.53
70,Yellowknife,1538287200,90,CA,92,62.45,-114.38,30.2,5.82
71,Tuktoyaktuk,1538283600,90,CA,92,69.44,-133.03,24.8,3.36
72,Athabasca,1538288895,0,CA,72,54.72,-113.29,18.08,2.95
73,Mataura,1538288729,64,NZ,81,-46.19,168.86,54.98,4.85
74,Lang Suan,1538287200,40,TH,75,9.95,99.07,89.6,8.05
75,Marsa Matruh,1538283600,75,EG,68,31.35,27.25,71.6,5.82
76,Labuhan,1538288896,36,ID,79,-2.54,115.51,84.41,3.4
77,Iqaluit,1538287200,90,CA,92,63.75,-68.52,30.2,29.97
78,Agua Dulce,1538288897,44,MX,100,18.14,-94.15,73.97,3.62
79,Maceio,1538287200,40,BR,94,-9.67,-35.74,73.4,6.93
80,Upernavik,1538288897,76,GL,100,72.79,-56.15,34.91,10.45
81,Cherskiy,1538288458,24,RU,75,68.75,161.3,45.26,4.85
82,Khani,1538287200,0,GE,53,41.96,42.96,71.6,12.75
83,Marshall,1538288100,40,US,94,39.39,-87.69,57.92,3.36
84,Cape Town,1538287200,0,ZA,67,-33.93,18.42,59.0,6.93
85,Kyshtovka,1538288899,20,RU,59,56.56,76.62,57.59,12.12
86,Maine-Soroa,1538288899,0,NE,72,13.21,12.02,75.68,3.18
87,Rivers,1538287200,90,CA,60,50.03,-100.23,39.2,14.99
88,Bredasdorp,1538287200,8,ZA,77,-34.53,20.04,59.0,2.24
89,Rome,1538287200,0,IT,100,41.89,12.48,62.6,4.29
90,Gabriel Leyva Solano,1538288735,32,MX,87,25.66,-108.64,77.66,2.84
91,Saskylakh,1538288911,80,RU,100,71.97,114.09,33.83,15.37
92,Kuruman,1538288911,0,ZA,55,-27.46,23.43,63.53,18.05
93,Hamilton,1538287920,90,CA,81,43.26,-79.87,51.8,3.36
94,Tocopilla,1538288777,56,CL,100,-22.09,-70.2,55.34,1.16
95,Oyama,1538283600,90,JP,100,36.31,139.8,71.6,1.12
96,Naze,1538288912,92,NG,98,5.43,7.07,74.51,4.63
97,Geraldton,1538287200,90,CA,80,49.72,-86.95,33.8,5.82
98,Puerto Ayora,1538288732,68,EC,100,-0.74,-90.35,69.65,8.77
99,Ancud,1538288733,88,CL,99,-41.87,-73.83,38.33,8.99
100,Avera,1538287680,90,US,90,33.19,-82.53,73.94,3.36
101,Kaeo,1538288913,64,NZ,56,-35.1,173.78,58.31,10.67
102,Jamestown,1538288752,8,AU,25,-33.21,138.6,66.23,13.69
103,Shenjiamen,1538288914,0,CN,81,29.96,122.3,77.84,21.85
104,Biscarrosse,1538287200,0,FR,93,44.41,-1.18,48.2,1.12
105,Kinshasa,1538287200,90,CD,83,-4.32,15.31,75.2,4.7
106,Pisco,1538287200,0,PE,87,-13.71,-76.2,57.2,5.82
107,Lukovetskiy,1538287200,0,RU,86,64.29,41.92,33.8,6.71
108,Akdepe,1538285400,0,TM,13,42.05,59.39,73.4,4.7
109,Codrington,1538288916,92,AU,100,-28.95,153.24,56.96,4.18
110,Mar del Plata,1538288758,8,AR,74,-46.43,-67.52,35.72,15.7
111,Nikolskoye,1538285400,40,RU,87,59.7,30.79,44.6,6.71
112,Shimoda,1538286060,75,JP,94,34.7,138.93,73.4,8.05
113,Mount Gambier,1538288917,20,AU,71,-37.83,140.78,62.0,2.95
114,Tasiilaq,1538286600,44,GL,59,65.61,-37.64,35.6,17.22
115,Tessalit,1538288917,88,ML,49,20.2,1.01,74.33,2.73
116,Jidong,1538288918,76,CN,78,45.25,131.14,61.91,3.4
117,Tygda,1538288918,0,RU,37,53.11,126.33,55.34,7.54
118,Turba,1538288918,48,SY,31,32.8,36.77,77.57,5.41
119,Sheregesh,1538288918,0,RU,67,52.93,87.98,58.94,3.29
120,Khatanga,1538288748,12,RU,88,71.98,102.47,47.42,14.58
121,Itarema,1538288919,92,BR,89,-2.92,-39.92,77.21,15.03
122,Peniche,1538287200,75,PT,93,39.36,-9.38,62.6,5.82
123,Peru,1538288100,90,US,78,41.33,-89.13,55.4,4.7
124,Sao Filipe,1538288920,92,CV,100,14.9,-24.5,76.94,10.56
125,Lata,1538288921,0,IN,80,30.78,78.62,64.7,1.95
126,Hobyo,1538288921,76,SO,90,5.35,48.53,79.28,12.01
127,Hobart,1538287200,75,AU,48,-42.88,147.33,62.6,10.29
128,Sioux Lookout,1538287200,90,CA,80,50.1,-91.92,41.0,8.05
129,Peterhead,1538287200,0,AU,39,-34.83,138.5,66.2,6.93
130,Rabo de Peixe,1538287200,40,PT,82,37.8,-25.58,66.2,11.41
131,Kruisfontein,1538288762,0,ZA,79,-34.0,24.73,62.0,13.47
132,Eyl,1538288922,8,SO,89,7.98,49.82,78.83,11.34
133,Norman Wells,1538287200,20,CA,86,65.28,-126.83,26.6,3.36
134,Goya,1538288933,64,AR,97,-29.14,-59.27,68.39,4.52
135,Gura Teghii,1538288934,0,RO,75,45.5,26.43,39.86,2.73
136,Fairbanks,1538287080,1,US,14,64.84,-147.72,41.0,8.05
137,Port Blair,1538288723,0,IN,100,11.67,92.75,84.05,2.17
138,Qasigiannguit,1538286600,48,GL,55,68.82,-51.19,37.4,19.46
139,Shingu,1538283600,75,JP,78,33.72,135.99,80.6,46.08
140,Ratangarh,1538288935,0,IN,49,28.07,74.62,91.25,4.63
141,Sao Felix do Xingu,1538288935,8,BR,97,-6.64,-51.99,73.16,1.95
142,Korhogo,1538288936,76,CI,99,9.46,-5.63,68.75,4.74
143,Tomakomai,1538285400,75,JP,93,42.65,141.6,64.4,6.93
144,Nantucket,1538288100,40,US,93,41.28,-70.1,55.94,3.36
145,Karpogory,1538288937,0,RU,95,64.0,44.44,33.47,5.41
146,Dunedin,1538288828,0,NZ,92,-45.87,170.5,49.94,2.62
147,Riyadh,1538287200,0,SA,27,24.63,46.72,86.0,4.7
148,Ponta do Sol,1538288495,64,BR,88,-20.63,-46.0,67.31,6.64
149,San Juan,1538286960,40,PR,87,18.47,-66.12,80.06,10.67
150,Crnomelj,1538287200,0,SI,93,45.57,15.19,55.4,1.12
151,Carnarvon,1538288938,0,ZA,10,-30.97,22.13,60.11,12.57
152,Vaitape,1538288939,0,PF,100,-16.52,-151.75,77.03,9.22
153,Longyearbyen,1538286600,20,NO,72,78.22,15.63,17.6,2.24
154,Avarua,1538283600,75,CK,68,-21.21,-159.78,69.8,5.82
155,Churapcha,1538288940,0,RU,39,62.0,132.43,40.4,8.43
156,San Patricio,1538288749,64,PY,65,-26.98,-56.83,79.55,5.75
157,Baruun-Urt,1538288940,64,MN,48,46.68,113.28,55.79,16.82
158,Hermanus,1538288747,8,ZA,53,-34.42,19.24,54.26,2.73
159,Bambous Virieux,1538287200,40,MU,65,-20.34,57.76,78.8,14.99
160,Coihaique,1538288280,90,CL,92,-45.58,-72.07,30.2,5.82
161,Ahipara,1538288941,48,NZ,73,-35.17,173.16,58.94,11.68
162,Bonthe,1538288941,92,SL,100,7.53,-12.5,73.07,5.41
163,Rancho Veloz,1538286660,20,CU,88,22.88,-80.39,75.2,5.82
164,Yangjiang,1538288942,0,CN,100,21.85,111.96,81.89,14.58
165,College,1538287080,1,US,14,64.86,-147.8,41.0,8.05
166,Lugovoy,1538288943,80,RU,77,59.72,65.88,46.61,10.33
167,Homer,1538287500,90,US,92,59.64,-151.54,51.08,2.84
168,Kodiak,1538286780,90,US,93,39.95,-94.76,57.92,6.87
169,Dicabisagan,1538288943,80,PH,100,17.08,122.42,77.39,3.29
170,Borovsk,1538285400,0,RU,73,55.21,36.48,35.6,6.71
171,Kavieng,1538288722,12,PG,100,-2.57,150.8,86.12,3.74
172,Payson,1538286960,1,US,28,40.04,-111.73,75.02,14.99
173,Dikson,1538288944,80,RU,93,73.51,80.55,39.77,12.46
174,Menongue,1538288730,64,AO,43,-14.66,17.68,73.88,5.64
175,Arkhipo-Osipovka,1538288945,76,RU,81,44.37,38.53,62.81,4.74
176,Rio Verde de Mato Grosso,1538288955,92,BR,77,-18.92,-54.84,71.0,2.62
177,Trairi,1538288956,68,BR,100,-3.28,-39.27,78.56,21.07
178,Kaitangata,1538288728,44,NZ,86,-46.28,169.85,53.9,4.63
179,Imeni Poliny Osipenko,1538288956,20,RU,60,52.42,136.49,52.1,2.62
180,Balkanabat,1538288957,12,TM,26,39.51,54.36,77.66,3.4
181,Cravo Norte,1538288957,12,CO,94,6.3,-70.2,72.89,2.84
182,Bima,1538288957,12,ID,69,-8.45,118.73,86.03,3.06
183,Gladstone,1538288957,92,AU,84,-23.84,151.26,69.02,14.25
184,Esso,1538288958,24,RU,55,55.93,158.7,35.45,7.31
185,Along,1538288958,76,IN,76,28.17,94.8,75.68,1.83
186,Kormilovka,1538287200,0,RU,58,55.0,74.1,59.0,4.47
187,Beringovskiy,1538288959,68,RU,98,63.05,179.32,46.79,13.8
188,Grindavik,1538285400,75,IS,69,63.84,-22.43,37.4,11.41
189,Khudumelapye,1538288959,0,BW,51,-23.91,24.95,63.89,20.51
190,Cidreira,1538288960,36,BR,77,-30.17,-50.22,71.72,11.01
191,Kirakira,1538288960,68,SB,100,-10.46,161.92,80.63,6.31
192,Wanlaweyn,1538288960,92,SO,81,2.62,44.89,80.0,8.66
193,Kwekwe,1538288961,36,ZW,77,-18.93,29.81,58.58,20.4
194,Aklavik,1538287200,20,CA,92,68.22,-135.01,23.0,4.7
195,Batsfjord,1538288961,88,NO,100,70.63,29.72,41.03,18.5
196,Touros,1538288832,80,BR,89,-5.2,-35.46,76.4,13.8
197,Fortuna,1538287200,0,ES,93,38.18,-1.13,64.4,3.18
198,Puerto Lempira,1538288962,44,HN,92,15.27,-83.77,74.51,2.62
199,Arraial do Cabo,1538288731,88,BR,99,-22.97,-42.02,72.71,13.69
200,Methoni,1538286600,75,GR,93,36.82,21.7,62.6,5.82
201,Pipri,1538288963,0,IN,57,24.21,83.02,89.45,6.31
202,San Rafael del Sur,1538287200,75,NI,88,11.85,-86.44,75.2,6.93
203,Butaritari,1538288752,0,KI,100,3.07,172.79,85.49,7.31
204,Faanui,1538288964,20,PF,100,-16.48,-151.75,78.11,6.42
205,Tuatapere,1538288964,32,NZ,93,-46.13,167.69,52.28,8.99
206,Ribeira Grande,1538287200,40,PT,68,38.52,-28.7,69.8,17.22
207,Margate,1538287200,75,AU,48,-43.03,147.26,62.6,10.29
208,Lavrentiya,1538288965,92,RU,87,65.58,-170.99,47.51,24.2
209,Brotas,1538288965,76,BR,77,-22.28,-48.12,69.74,5.75
210,Luderitz,1538288747,0,NA,78,-26.65,15.16,59.48,12.01
211,Bandarbeyla,1538288966,8,SO,92,9.49,50.81,79.01,12.91
212,Lovozero,1538288966,92,RU,94,68.01,35.02,35.09,6.76
213,Keetmanshoop,1538288967,0,NA,51,-26.57,18.15,66.86,11.23
214,Bowen,1538283600,0,AU,54,-20.01,148.25,80.6,11.41
215,Indian Head,1538288967,0,CA,65,50.53,-103.67,30.23,10.22
216,Narsaq,1538286600,92,GL,94,60.91,-46.05,48.2,18.34
217,Alofi,1538287200,80,NU,78,-19.06,-169.92,71.6,12.75
218,Soria,1538288697,0,ES,83,41.76,-2.46,39.68,2.17
219,Saldanha,1538288968,0,PT,91,41.42,-6.55,51.74,2.62
220,Westport,1538287200,75,IE,93,53.8,-9.52,46.4,10.29
221,Saint Anthony,1538288100,75,US,46,43.97,-111.68,64.94,8.05
222,Guerrero Negro,1538288979,36,MX,91,27.97,-114.04,69.65,3.62
223,Anju,1538288979,0,KP,90,39.62,125.66,64.43,11.45
224,The Pas,1538287200,20,CA,63,53.82,-101.24,30.2,14.99
225,Henties Bay,1538288980,64,NA,93,-22.12,14.28,57.59,2.62
226,Kiama,1538283600,0,AU,42,-34.67,150.86,62.6,12.75
227,Helena,1538287740,90,US,15,46.59,-112.04,35.96,9.17
228,Kargat,1538288981,12,RU,48,55.19,80.28,60.29,13.91
229,Matara,1538288981,12,PE,94,-13.74,-72.9,37.43,1.95
230,Fairview,1538288460,1,US,87,40.81,-74.0,62.96,6.76
231,Bayan,1538288982,0,MN,48,47.25,107.54,51.29,9.55
232,Santa Marta,1538288983,48,CO,100,11.24,-74.21,81.35,16.6
233,Taunggyi,1538288984,80,MM,91,20.78,97.03,74.15,1.83
234,Gunnedah,1538287200,0,AU,28,-30.98,150.25,71.6,11.41
235,Kavaratti,1538288748,44,IN,100,10.57,72.64,82.61,8.1
236,Te Anau,1538288984,76,NZ,99,-45.41,167.72,49.94,2.39
237,Gigmoto,1538288985,56,PH,100,13.78,124.39,83.96,3.62
238,Carbonia,1538286600,40,IT,82,39.17,8.53,62.6,4.7
239,Mahebourg,1538287200,40,MU,65,-20.41,57.7,78.8,14.99
240,Tonshayevo,1538288985,80,RU,90,57.74,47.01,40.76,5.41
241,Raudeberg,1538286600,92,NO,81,61.99,5.14,48.2,20.8
242,Puerto Leguizamo,1538288986,48,CO,84,-0.19,-74.78,77.48,2.84
243,Ostrovnoy,1538288986,0,RU,90,68.05,39.51,29.96,15.26
244,Wanning,1538286600,0,AT,70,48.64,13.53,42.8,6.93
245,Viransehir,1538288987,20,TR,37,37.24,39.76,77.21,1.16
246,Ibra,1538288987,0,OM,49,22.69,58.55,85.31,3.51
247,North Bend,1538286960,90,US,83,43.41,-124.22,57.92,4.7
248,Sambava,1538288988,0,MG,100,-14.27,50.17,75.05,12.68
249,Tripoli,1538286600,75,GR,93,37.51,22.37,62.6,5.82
250,Port Alfred,1538288783,0,ZA,83,-33.59,26.89,65.78,20.51
251,Zhaozhou,1538288989,92,CN,100,45.71,125.27,54.44,4.63
252,Oktyabrskiy,1538287200,0,RU,73,55.61,37.97,37.4,4.47
253,Kimbe,1538288990,32,PG,86,-5.56,150.15,86.21,7.43
254,Camacha,1538287200,75,PT,73,33.08,-16.33,71.6,11.41
255,Mudhol,1538288991,12,IN,83,16.33,75.29,84.41,4.29
256,Vostok,1538288991,20,RU,82,46.45,135.83,58.04,2.84
257,Taywarah,1538288991,0,AF,37,33.35,64.42,63.44,2.84
258,Chapais,1538287740,90,CA,86,49.78,-74.86,37.4,5.82
259,Nome,1538286900,1,US,90,30.04,-94.42,75.92,6.42
260,Darnah,1538288992,32,LY,100,32.77,22.64,72.89,14.7
261,Ginda,1538288992,0,IN,80,30.69,78.49,64.7,1.95
262,Kariba,1538288992,48,ZW,45,-16.53,28.78,78.38,13.91
263,Kholodnyy,1538288993,80,RU,80,62.72,147.95,27.08,12.01
264,Mocuba,1538288993,88,MZ,73,-16.84,36.99,75.95,5.75
265,Quelimane,1538283600,40,MZ,78,-17.88,36.89,78.8,12.75
266,Torbay,1538287200,90,CA,100,47.66,-52.73,57.2,9.17
267,Prince Rupert,1538287200,1,CA,57,54.32,-130.32,46.4,3.36
268,Fomboni,1538289004,56,KM,100,-12.28,43.74,77.21,5.19
269,Vila Franca do Campo,1538287200,40,PT,82,37.72,-25.43,66.2,11.41
270,East London,1538287200,0,ZA,63,-33.02,27.91,64.4,19.46
271,Jalu,1538289006,0,LY,37,29.03,21.55,69.29,3.18
272,Tieli,1538289069,64,CN,74,46.98,128.05,63.26,6.53
273,Sao Desiderio,1538289069,0,BR,29,-12.36,-44.97,76.49,11.34
274,Iquitos,1538287200,0,PE,94,-3.75,-73.25,75.2,2.24
275,Lososina,1538289008,44,RU,81,49.0,140.31,60.83,4.85
276,Chokurdakh,1538289009,92,RU,95,70.62,147.9,36.08,19.73
277,Sobolevo,1538289009,0,RU,87,54.43,31.9,40.49,11.68
278,San Quintin,1538289010,76,PH,77,17.54,120.52,80.18,4.18
279,Yerbogachen,1538289011,0,RU,59,61.28,108.01,52.73,7.87
280,Farmington,1538286780,1,US,6,36.73,-108.21,60.08,4.7
281,Kangaatsiaq,1538289012,56,GL,98,68.31,-53.46,36.35,16.82
282,Pangnirtung,1538288722,92,CA,90,66.15,-65.72,34.73,13.24
283,Ugoofaaru,1538288794,92,MV,100,5.67,73.0,83.06,16.71
284,Shache,1538289012,64,CN,27,38.42,77.24,70.01,4.74
285,Pala,1538287200,20,IN,66,9.71,76.68,86.0,3.36
286,Tiarei,1538287200,75,PF,73,-17.53,-149.33,77.0,12.75
287,Chihuahua,1538288915,0,MX,74,28.66,-106.08,53.18,0.6
288,Inuvik,1538287200,20,CA,92,68.36,-133.71,23.0,4.7
289,Manggar,1538289077,8,ID,60,-2.88,108.27,90.35,14.14
290,Teya,1538286480,5,MX,83,21.05,-89.07,78.8,6.93
291,Koumac,1538289016,92,NC,79,-20.56,164.28,73.25,10.67
292,Santa Helena de Goias,1538289079,76,BR,81,-17.81,-50.6,71.72,1.39
293,Aswan,1538289017,8,EG,27,24.09,32.9,91.07,5.75
294,Hudson Bay,1538289017,8,CA,63,52.86,-102.4,29.51,6.64
295,Cabedelo,1538287200,75,BR,88,-6.97,-34.84,75.2,3.36
296,Leh,1538289018,0,IN,39,34.16,77.58,31.94,1.5
297,Novobirilyussy,1538289018,0,RU,55,56.95,90.69,57.05,15.26
298,Terrak,1538286600,92,NO,87,65.09,12.37,46.4,13.87
299,La Rioja,1538288726,0,AR,51,-29.41,-66.86,63.8,7.43
300,Takaka,1538289019,92,NZ,87,-40.86,172.81,54.17,9.1
301,Tumut,1538289020,0,AU,57,-35.3,148.22,57.41,2.95
302,Muisne,1538289020,68,EC,98,0.61,-80.02,70.64,3.29
303,Klaksvik,1538286600,92,FO,87,62.23,-6.59,42.8,25.28
304,Mehamn,1538289021,92,NO,100,71.03,27.85,37.7,12.24
305,Khovu-Aksy,1538289021,0,RU,55,51.13,93.72,57.77,2.95
306,Luis Correia,1538289021,48,BR,87,-2.88,-41.67,76.85,17.72
307,Faya,1538283600,0,SA,23,18.39,42.45,69.8,6.93
308,Bastia,1538286900,0,IT,55,44.6,8.98,66.2,9.17
309,Mujiayingzi,1538289022,92,CN,74,42.12,118.78,45.8,12.46
310,Acajutla,1538289023,48,SV,96,13.59,-89.83,72.71,3.62
311,Maravilha,1538289023,36,BR,82,-26.76,-53.17,70.19,7.31
312,Lompoc,1538287080,1,US,82,34.64,-120.46,57.02,5.41
313,Kalmunai,1538289024,68,LK,81,7.42,81.82,84.05,5.64
314,Dera Bugti,1538289024,0,PK,41,29.03,69.15,91.34,3.96
315,Sinop,1538286600,75,TR,82,42.03,35.15,68.0,4.7
316,Khasan,1538289035,20,RU,90,42.43,130.64,64.25,9.44
317,Xuddur,1538289035,0,SO,68,4.12,43.89,77.39,11.45
318,Dukat,1538289035,68,RS,84,42.44,22.31,43.1,2.73
319,Gao,1538289036,68,ML,57,16.28,-0.04,78.38,4.85
320,Ketchikan,1538286960,1,US,51,55.34,-131.65,57.92,13.24
321,Bakel,1538289037,88,SN,95,14.9,-12.46,76.49,8.99
322,Presidencia Roque Saenz Pena,1538289037,0,AR,84,-26.79,-60.44,74.33,8.66
323,Yilan,1538285400,20,TW,48,24.75,121.75,84.2,12.75
324,Burns Lake,1538289038,0,CA,66,54.23,-125.76,35.18,7.99
325,Pirovskoye,1538289038,8,RU,55,57.63,92.27,55.16,12.8
326,Olinda,1538287200,20,EC,83,-2.03,-79.75,69.8,12.75
327,Pervomayskiy,1538289039,0,RU,83,53.24,40.29,40.76,4.74
328,Raton,1538286840,1,US,51,36.9,-104.44,64.04,4.7
329,Honiara,1538287200,75,SB,66,-9.43,159.96,86.0,2.24
330,Ilulissat,1538286600,48,GL,55,69.22,-51.1,37.4,19.46
331,Salto,1538288766,88,UY,99,-31.39,-57.96,66.77,6.76
332,Namibe,1538288748,20,AO,99,-15.19,12.15,68.84,3.51
333,Nago,1538286600,75,IT,44,45.88,10.89,59.0,9.17
334,Kahului,1538286960,1,US,81,20.89,-156.47,80.06,11.41
335,Hirara,1538283600,40,JP,48,24.8,125.28,84.2,17.22
336,Vardo,1538286900,1,US,80,39.62,-77.74,57.02,3.18
337,Moose Factory,1538287200,90,CA,90,51.26,-80.61,32.0,9.17
338,Clemson,1538286960,1,US,97,34.69,-82.84,71.96,3.06
339,Half Moon Bay,1538287200,90,US,72,37.46,-122.43,64.4,7.54
340,Tres Passos,1538289042,48,BR,79,-27.46,-53.93,73.16,10.0
341,Inhambane,1538287200,75,MZ,64,-23.87,35.38,71.6,13.87
342,Yulara,1538283600,0,AU,13,-25.24,130.99,89.6,13.87
343,Barranco,1538289043,92,BR,97,-20.59,-41.2,64.61,3.06
344,Zempoala,1538289044,92,MX,94,20.09,-98.0,53.9,0.38
345,Tiksi,1538289044,88,RU,98,71.64,128.87,35.9,9.44
346,Huanren,1538289044,56,CN,78,41.26,125.37,55.25,4.18
347,Thinadhoo,1538288781,76,MV,100,0.53,72.93,82.7,15.48
348,Rio Gallegos,1538287200,90,AR,100,-51.62,-69.22,32.0,14.99
349,Ongandjera,1538289045,100,NA,29,-17.88,15.07,76.04,8.43
350,Kutum,1538289045,0,SD,41,14.2,24.66,78.47,9.1
351,Meulaboh,1538289046,68,ID,100,4.14,96.13,80.18,5.41
352,Yueyang,1538289046,0,CN,65,29.36,113.12,81.35,4.07
353,Amnat Charoen,1538289046,88,TH,74,15.86,104.63,85.13,10.0
354,Lazaro Cardenas,1538289047,36,MX,54,28.39,-105.62,69.65,8.32
355,Olovyannaya,1538289047,0,RU,48,50.94,115.59,62.54,8.43
356,Matagami,1538289047,24,NG,95,9.67,8.4,65.69,2.62
357,Arman,1538287200,90,RU,57,59.7,150.17,48.2,6.71
358,Komsomolets,1538289048,0,RU,100,52.77,41.29,40.76,4.85
359,Montlucon,1538289048,0,FR,80,46.33,2.6,42.74,4.85
360,Clyde River,1538287200,90,CA,100,70.47,-68.59,28.4,21.92
361,Huilong,1538289049,64,CN,56,28.89,110.18,76.76,2.95
362,Mabaruma,1538289059,80,GY,87,8.2,-59.78,81.35,6.31
363,Epinal,1538287200,0,FR,81,48.18,6.45,46.4,5.82
364,Peoria,1538288100,90,US,87,40.69,-89.59,56.48,7.65
365,Bataipora,1538289060,88,BR,84,-22.3,-53.27,72.89,3.18
366,Oistins,1538287200,40,BB,78,13.07,-59.53,80.6,17.22
367,Kostino,1538287200,92,BG,100,41.7,25.3,55.4,4.7
368,Mangrol,1538289061,0,IN,46,25.33,76.51,92.69,4.85
369,Moree,1538289061,32,AU,46,-29.46,149.84,70.73,7.2
370,Imeni Zhelyabova,1538288969,48,RU,88,58.95,36.6,38.33,10.22
371,Yakeshi,1538289062,20,CN,74,49.28,120.73,55.43,8.77
372,Osorno,1538289062,24,CL,89,-40.57,-73.14,34.01,5.08
373,Mendi,1538289063,88,ET,87,9.8,35.1,66.5,4.18
374,Beziers,1538287200,90,FR,63,43.35,3.22,64.4,5.82
375,Gold Coast,1538287200,90,AU,77,-28.0,153.41,62.6,10.29
376,Livingston,1538287080,1,US,96,32.58,-88.19,69.08,2.28
377,Ritchie,1538287200,0,ZA,52,-29.03,24.6,64.4,20.8
378,Kalabo,1538289064,0,ZM,32,-15.0,22.67,77.93,19.51
379,Saint George,1538286600,75,GR,82,39.45,22.34,59.0,16.11
380,Zhirnovsk,1538289065,76,RU,82,50.98,44.78,43.73,11.68
381,Zwedru,1538289065,100,LR,99,6.07,-8.13,71.72,3.74
382,Murgab,1538287200,0,TM,29,37.5,61.97,77.0,4.63
383,Rantepao,1538289066,32,ID,73,-2.97,119.9,80.36,2.84
384,Kabalo,1538289066,44,CD,87,-6.05,26.92,74.78,4.52
385,Dwarka,1538287200,0,IN,55,28.58,77.04,87.8,9.17
386,Hasaki,1538285400,75,JP,88,35.73,140.83,71.6,2.24
387,Stromness,1538287200,90,CA,81,42.87,-79.55,51.08,3.36
388,Erenhot,1538289067,32,CN,56,43.65,111.97,55.16,18.16
389,Roald,1538286600,75,NO,87,62.58,6.12,48.2,11.41
390,Fuerte Olimpo,1538289068,0,BR,62,-21.04,-57.87,77.93,10.33
391,Sola,1538286600,40,NO,81,58.89,5.65,50.0,12.75
392,Sherbakul,1538289068,48,RU,57,54.63,72.39,60.11,6.42
393,Wagga Wagga,1538287200,0,AU,24,-35.12,147.37,68.0,4.7
394,San Cristobal,1538287200,75,EC,93,-0.39,-78.55,51.8,2.24
395,Padang,1538289033,32,ID,100,-0.92,100.36,79.46,5.41
396,Ihiala,1538289070,88,NG,100,5.86,6.86,74.51,6.42
397,Atagay,1538289070,0,RU,55,55.1,99.39,57.59,3.62
398,Brae,1538286600,92,GB,96,60.4,-1.35,50.0,17.22
399,Buraydah,1538287200,0,SA,21,26.33,43.97,84.2,4.7
400,Rio Grande,1538289071,92,BR,97,-32.03,-52.1,67.22,17.72
401,Stokmarknes,1538289071,92,NO,100,68.56,14.91,44.72,7.76
402,Alice Springs,1538287200,8,AU,11,-23.7,133.88,89.6,11.41
403,Sajanan,1538287200,0,TN,93,37.06,9.24,62.6,3.36
404,Tibanban,1538289072,0,PH,96,6.63,126.08,84.68,10.78
405,Khor,1538289072,0,RU,84,47.88,134.96,63.71,6.53
406,Granada,1538287200,75,NI,88,11.93,-85.96,75.2,6.93
407,Salekhard,1538289073,36,RU,98,66.54,66.62,40.85,12.46
408,Coquimbo,1538287200,88,CL,93,-29.95,-71.34,53.6,3.36
409,Torez,1538289084,92,UA,80,48.03,38.62,50.03,13.47
410,Hearst,1538289084,0,CA,87,49.69,-83.67,28.16,5.97
411,Mazagao,1538287200,0,BR,88,-0.12,-51.29,78.8,8.05
412,Jackson,1538286960,1,US,96,35.61,-88.82,60.98,2.51
413,Lagos,1538288944,100,NG,98,6.46,3.39,76.04,3.51
414,Jizan,1538287200,0,SA,59,16.89,42.56,95.0,7.54
415,Cayenne,1538287200,8,GF,100,4.94,-52.33,71.6,8.21
416,Gat,1538289086,56,SN,93,14.69,-16.54,76.67,4.85
417,Lubango,1538289086,32,AO,85,-14.92,13.49,64.61,1.61
418,Salinopolis,1538289086,48,BR,97,-0.61,-47.36,80.18,15.93
419,Hambantota,1538288859,80,LK,100,6.12,81.12,78.65,8.21
420,Airai,1538288757,0,TL,35,-8.93,125.41,86.12,3.06
421,Wenling,1538289087,0,CN,69,28.38,121.38,83.06,13.35
422,Portland,1538288700,1,US,93,45.52,-122.67,59.0,1.72
423,Forest Hills,1538289088,0,ZA,69,-29.76,30.83,61.46,9.89
424,Pineville,1538288100,90,US,90,31.32,-92.43,73.04,3.36
425,Gurlan,1538287200,0,UZ,27,41.84,60.39,75.2,6.93
426,Kintampo,1538289089,44,GH,97,8.05,-1.73,70.55,5.75
427,Bose,1538286600,75,IT,76,45.46,8.01,59.0,3.36
428,Sao Gotardo,1538289090,80,BR,80,-19.31,-46.05,69.56,11.34
429,Kompaniyivka,1538289090,24,UA,94,48.25,32.21,48.41,12.24
430,Grayslake,1538288220,90,US,82,42.34,-88.04,55.94,9.17
431,Dingle,1538289091,32,PH,88,11.0,122.67,81.62,7.76
432,Junqueiro,1538289091,92,BR,95,-9.92,-36.47,73.88,7.65
433,Kabwe,1538289091,0,ZM,57,-14.44,28.44,71.45,21.74
434,Ribeira Brava,1538287200,40,PT,73,32.65,-17.07,71.6,11.41
435,Ouro Preto,1538289092,92,BR,100,-20.39,-43.5,66.59,2.95
436,Hualmay,1538289092,32,PE,90,-11.1,-77.61,54.8,4.52
437,Antigonish,1538287200,40,CA,87,45.62,-61.99,50.0,4.7
438,Soderhamn,1538289093,8,SE,80,61.3,17.06,48.05,10.0
439,Mandalgovi,1538289093,0,MN,72,45.76,106.27,49.58,10.22
440,Asyut,1538283600,0,EG,49,27.18,31.19,73.4,9.17
441,Uglovskoye,1538289094,0,RU,44,51.36,80.19,65.69,4.97
442,Praia da Vitoria,1538287200,20,PT,77,38.73,-27.07,68.0,22.08
443,Banda Aceh,1538289094,76,ID,92,5.56,95.32,81.17,2.51
444,Tiznit,1538289095,8,MA,86,29.7,-9.73,67.58,4.63
445,Lucapa,1538289095,32,AO,93,-8.42,20.74,70.55,4.18
446,Sibenik,1538289095,0,HR,86,45.81,17.18,38.33,2.62
447,Carballo,1538287200,75,ES,100,43.21,-8.69,53.6,2.24
448,Lagoa,1538287200,0,PT,73,37.14,-8.45,73.4,3.36
449,Oliveira dos Brejinhos,1538289096,0,BR,53,-12.32,-42.89,69.29,8.32
450,Gobabis,1538287200,64,NA,36,-22.45,18.97,77.0,8.05
451,Nara,1538287200,75,JP,78,34.68,135.8,77.0,27.51
452,Ayorou,1538289097,8,NE,63,14.73,0.92,75.68,2.95
453,Ngunguru,1538289097,32,NZ,94,-35.62,174.5,59.12,13.13
454,Srednekolymsk,1538289098,92,RU,89,67.46,153.71,34.73,6.2
455,Charleston,1538286840,40,US,100,38.35,-81.63,55.04,2.84
456,Emerald,1538289098,24,AU,30,-23.53,148.16,87.2,8.66
457,Banjar,1538289109,12,ID,56,-7.37,108.54,86.39,3.96
458,Tarakan,1538289109,24,ID,89,3.3,117.63,84.95,2.95
459,Taupo,1538289109,8,NZ,55,-38.68,176.08,54.17,5.41
460,Navsari,1538289110,0,IN,45,20.95,72.93,97.46,5.3
461,Storforshei,1538289110,92,NO,100,66.4,14.52,33.29,2.39
462,Andilamena,1538289110,8,MG,67,-17.01,48.57,66.86,5.41
463,Hun,1538288400,0,BE,93,50.34,4.87,42.8,3.36
464,La Orilla,1538289111,68,MX,99,18.0,-102.23,79.28,2.73
465,Russell,1538287200,0,AR,67,-33.01,-68.8,57.2,6.93
466,Puerto del Rosario,1538287200,40,ES,83,28.5,-13.86,71.6,8.05
467,Maralal,1538289112,32,KE,88,1.1,36.7,65.15,3.51
468,Lebanon,1538288640,90,US,88,43.64,-72.25,46.04,3.36
469,Talnakh,1538289112,92,RU,96,69.49,88.39,41.03,12.01
470,Petropavl,1538287200,0,KZ,58,54.87,69.13,59.0,8.95
471,Dalbandin,1538289113,0,PK,13,28.9,64.41,86.48,2.39
472,Kolchugino,1538289113,48,RU,84,56.3,39.38,36.53,6.76
473,Bridlington,1538286600,32,GB,87,54.08,-0.19,48.2,5.82
474,Cedar City,1538286780,1,US,35,37.68,-113.06,64.94,12.75
475,Praya,1538287200,20,ID,44,-8.71,116.27,93.2,9.17
476,Saryg-Sep,1538289115,0,RU,71,51.49,95.55,57.23,2.39
477,Rocha,1538289115,80,UY,97,-34.48,-54.34,60.38,5.19
478,Souillac,1538287200,0,FR,75,45.6,-0.6,46.4,3.18
479,Freeport,1538288870,36,BS,95,26.54,-78.7,83.33,18.72
480,Wad Rawah,1538289116,0,SD,34,15.16,33.13,88.55,4.52
481,Cocorit,1538289117,24,MX,74,27.57,-109.96,80.99,3.4
482,Manokwari,1538289117,64,ID,100,-0.87,134.08,79.46,1.95
483,Hervey Bay,1538289117,100,AU,100,-25.3,152.85,65.78,16.82
484,Chifeng,1538288930,92,CN,74,42.27,118.96,45.8,12.46
485,Qandala,1538289118,12,SO,55,11.47,49.87,84.05,2.62
486,Hofn,1538289118,0,IS,100,64.25,-15.21,37.79,24.43
487,Mecca,1538289118,0,SA,74,21.43,39.83,86.03,1.39
488,Lumeje,1538289119,44,AO,83,-11.56,20.78,68.21,3.85
489,Turukhansk,1538289119,76,RU,100,65.8,87.96,44.09,12.46
490,Batagay-Alyta,1538289119,24,RU,86,67.8,130.41,26.54,3.85
491,Rafaela,1538289120,0,AR,94,-31.25,-61.49,58.49,7.43
492,Bonavista,1538288730,8,CA,96,48.65,-53.11,52.55,14.92
493,Jining,1538288923,0,CN,46,35.41,116.58,69.83,15.26
494,Peto,1538289120,20,MX,90,20.13,-88.92,75.68,3.51
495,Gamba,1538289121,0,CN,39,28.28,88.52,45.17,1.95
496,Tambun,1538287200,75,MY,63,4.62,101.14,91.4,6.93
497,Sabha,1538289122,0,LY,76,27.03,14.43,65.96,3.51
498,Troitskoye,1538289122,0,RU,39,52.98,84.68,63.8,4.07
499,Valparaiso,1538288100,90,US,63,41.47,-87.06,55.94,10.29
500,Bilma,1538289123,0,NE,23,18.69,12.92,74.96,4.74
501,Paulo Ramos,1538289123,20,BR,76,-4.45,-45.24,78.65,11.79
502,Ambilobe,1538289133,0,MG,43,-13.19,49.05,82.79,5.53
503,Chumikan,1538289134,80,RU,64,54.72,135.31,50.66,7.87
504,Sokoni,1538289134,0,CD,38,-12.89,28.78,75.86,13.69
505,Alexandria,1538288100,90,US,90,31.31,-92.44,73.04,3.36
506,Paranaiba,1538289135,88,BR,84,-19.68,-51.19,73.7,2.28
507,Mogadishu,1538283600,40,SO,78,2.04,45.34,80.6,13.87
508,Chiredzi,1538289135,92,ZW,68,-21.05,31.67,67.31,15.26
509,Tahe,1538289135,0,CN,47,52.34,124.71,51.29,7.65
510,Saint-Georges,1538289136,88,CA,99,46.12,-70.67,45.53,3.62
511,Harper,1538287140,90,US,92,30.3,-99.24,71.6,8.05
512,Pakxan,1538289136,0,LA,63,18.39,103.66,86.39,1.39
513,Fort Nelson,1538287200,40,CA,85,58.81,-122.69,23.0,3.36
514,Altamira,1538288756,20,BR,80,-3.2,-52.21,78.29,5.64
515,Port Hedland,1538287200,8,AU,31,-20.31,118.58,89.6,19.46
516,Quthing,1538289137,0,LS,52,-30.4,27.7,53.99,3.96
517,Nemuro,1538287200,75,JP,93,43.32,145.57,60.8,9.17
518,Maldonado,1538287200,75,UY,93,-34.91,-54.96,59.0,4.18
519,Peruibe,1538289001,80,BR,97,-24.32,-47.0,72.71,16.04
520,Gornyy,1538289139,92,RU,99,51.76,48.54,44.99,15.37
521,Ossora,1538289139,24,RU,93,59.24,163.07,44.99,7.99
522,Termez,1538287200,0,AF,21,37.23,67.28,78.8,2.24
523,Atar,1538289140,0,MR,83,20.52,-13.05,68.93,1.83
524,Portree,1538289140,92,GB,100,57.41,-6.19,49.76,24.76
525,Mnogovershinnyy,1538289140,76,RU,57,53.94,139.92,45.98,5.08
526,Pakxe,1538287200,40,LA,66,15.12,105.78,87.8,6.93
527,Petropavlovsk-Kamchatskiy,1538285400,0,RU,35,53.05,158.65,57.2,13.42
528,Acari,1538289141,12,BR,95,-6.44,-36.64,68.66,10.0
529,Frickenhausen,1538289142,0,DE,74,50.41,10.23,29.69,2.51
530,Thai Binh,1538289142,32,VN,78,20.45,106.33,85.58,6.64
531,Santa Rosa,1538289143,64,AR,64,-36.62,-64.29,47.78,7.09
532,Bongandanga,1538289143,64,CD,91,1.51,21.07,76.49,3.06
533,Isangel,1538289144,92,VU,100,-19.55,169.27,72.89,21.3
534,Laguna,1538289144,24,MX,74,27.52,-110.01,80.99,3.4
535,Brookings,1538288400,90,US,100,44.31,-96.8,48.38,3.18
536,Kyaukse,1538285400,75,MM,53,21.6,96.13,95.0,3.36
537,Brasy,1538287200,0,CZ,82,49.84,13.58,37.4,1.12
538,Haines Junction,1538289145,0,CA,82,60.75,-137.51,22.31,1.95
539,General Roca,1538283600,0,AR,39,-39.03,-67.58,53.6,12.75
540,Umea,1538286600,0,SE,87,63.83,20.26,42.8,4.7
541,Spornoye,1538287200,0,RU,81,50.84,37.29,42.8,6.71
542,Deer Lake,1538287200,40,CA,81,49.18,-57.43,46.4,9.17
543,Broome,1538286600,20,GB,93,52.47,1.45,40.64,5.82
544,Kununurra,1538287200,0,AU,17,-15.77,128.74,98.6,17.22
545,Chicama,1538287200,90,PE,93,-7.84,-79.15,60.8,9.17
546,Iracoubo,1538288778,0,GF,81,5.48,-53.21,77.66,5.97
547,Glenwood Springs,1538286960,1,US,45,39.55,-107.33,57.92,14.99
548,Ambon,1538287200,0,FR,93,47.55,-2.56,39.2,3.36
549,Tres Arroyos,1538289148,20,AR,84,-38.38,-60.28,45.98,6.2
550,The Valley,1538287200,20,AI,78,18.22,-63.06,80.6,3.36
551,Cam Ranh,1538289159,48,VN,100,11.92,109.15,80.27,4.41
552,Shushtar,1538289159,0,IR,23,32.05,48.86,90.35,5.75
553,Tautira,1538287200,75,PF,73,-17.73,-149.15,77.0,12.75
554,Joensuu,1538288400,90,FI,93,62.6,29.76,44.6,8.05
555,Harnosand,1538286600,8,SE,100,62.63,17.94,33.8,3.36
556,Marzuq,1538289161,0,YE,25,14.4,46.47,79.73,3.62
557,Broken Hill,1538289161,8,AU,32,-31.97,141.45,70.1,9.78
558,Trincomalee,1538289161,56,LK,97,8.58,81.23,84.32,4.41
559,Ussel,1538289162,0,FR,80,45.55,2.31,44.81,5.53
560,Flin Flon,1538289162,0,CA,90,54.77,-101.88,30.95,10.78
561,Leningradskiy,1538289163,56,RU,85,69.38,178.42,44.0,25.55
562,Tura,1538289163,12,IN,87,25.52,90.21,84.23,3.18
563,Huambo,1538283600,75,AO,100,-12.78,15.73,59.0,2.17
564,High Rock,1538289164,32,BS,100,26.63,-78.28,83.24,19.62
565,Lamu,1538289164,0,ID,59,0.57,122.3,87.56,3.96
566,Dharchula,1538289164,0,IN,64,29.85,80.53,60.65,1.72
567,Nizhniy Kuranakh,1538289164,92,RU,98,58.84,125.49,39.95,7.65
568,Port Hardy,1538287200,75,CA,87,50.7,-127.42,51.8,7.99
569,Nouakchott,1538289165,0,MR,100,18.08,-15.98,78.83,11.79
570,Videira,1538289165,0,BR,96,-27.01,-51.15,62.18,6.2
571,Muros,1538287200,32,ES,100,42.77,-9.06,53.6,1.12
572,Billings,1538286780,90,US,95,45.79,-108.5,37.04,12.75
573,Antofagasta,1538287200,90,CL,82,-23.65,-70.4,59.0,5.82
574,Shorapani,1538287200,0,GE,53,42.1,43.08,71.6,12.75
575,Jutai,1538289168,0,BR,89,-1.71,-47.89,75.05,5.19
576,Luyang,1538287200,0,CN,34,31.88,117.26,82.4,15.66
577,Pychas,1538289168,88,RU,100,56.5,52.44,42.56,7.99
578,Kaka,1538289169,0,TM,32,37.35,59.62,73.16,3.74
579,Jodar,1538289169,8,ES,83,37.84,-3.35,50.3,2.39
580,Bolgatanga,1538289169,64,GH,94,10.79,-0.85,72.08,3.4
581,Price,1538286780,1,US,6,39.6,-110.81,57.92,10.29
582,San Luis,1538289170,0,AR,77,-33.3,-66.34,53.36,10.0
583,Bilibino,1538289171,92,RU,97,68.06,166.44,47.15,5.3
584,Puerto Rondon,1538289171,12,CO,94,6.28,-71.1,72.53,2.73
585,Truth or Consequences,1538286780,1,US,33,33.13,-107.25,71.06,6.93
586,Carnduff,1538289172,80,CA,71,49.17,-101.8,36.26,9.33
